[
	{
		"name": "\uc5ec\uc758\ub3c4 \uc11c\uc6b8\ud56d",
		"coordinates": [
			126.935103,
			37.527945
		]
	},
	{
		"name": "\uc5ec\uc758\ub3c4 \uc120\ucc29\uc7a5",
		"coordinates": [
			126.932938,
			37.529666
		]
	},
	{
		"name": "\uae40\ud3ec\uac11\ubb38",
		"coordinates": [
			126.7986569,
			37.5994014
		]
	},
	{
		"name": "\uc544\ub77c\uae40\ud3ec\uc5ec\uac1d\ud130\ubbf8\ub110",
		"coordinates": [
			126.787169,
			37.597344
		]
	},
	{
		"name": "\uc11c\ud574\uac11\ubb38",
		"coordinates": [
			126.6029487,
			37.5608175
		]
	},
	{
		"name": "\uc601\uc885\ub3c4",
		"coordinates": [
			126.425676,
			37.421393
		]
	},
	{
		"name": "\uc778\ucc9c\ud56d\uc5f0\uc548\uc5ec\uac1d\ud130\ubbf8\ub110",
		"coordinates": [
			126.599136,
			37.454604
		]
	},
	{
		"name": "\ub355\uc801\ub3c4 \uc9c4\ub9ac\ud56d",
		"coordinates": [
			126.156375,
			37.226515
		]
	},
	{
		"name": "\ubc31\ub839\ub3c4 \uc6a9\uae30\ud3ec\ud56d",
		"coordinates": [
			124.72984,
			37.95097
		]
	},
	{
		"name": "\uc11c\uaca9\ub82c\ube44\ub3c4",
		"coordinates": [
			125.5440399,
			36.6116413
		]
	}
]